City_ID,City,Country,Lat,Lng,Max Temp,Humidity,Cloudiness,Wind Speed
0,Thompson,CA,55.7435,-97.8558,19.56,93,100,5.75
1,Medicine Hat,CA,50.0501,-110.6683,37.83,70,75,9.22
2,Ushuaia,AR,-54.8,-68.3,44.26,93,40,8.05
3,Avarua,CK,-21.2078,-159.775,78.85,65,40,20.71
4,Mar Del Plata,AR,-38.0023,-57.5575,61.09,86,20,21.99
5,Ribeira Grande,PT,38.5167,-28.7,64.78,87,100,5.01
6,Kapaa,US,22.0752,-159.319,85.98,84,75,10.36
7,Yellowknife,CA,62.456,-114.3525,10.92,85,75,10.36
8,Griffith,US,41.5284,-87.4237,71.89,63,0,21.85
9,Bairiki,KI,1.3292,172.9752,86.0,74,20,9.22
10,Taltal,CL,-25.4,-70.4833,59.68,78,7,5.44
11,Bethel,US,41.3712,-73.414,61.86,80,98,1.01
12,Aranos,NA,-24.1333,19.1167,64.08,28,0,10.98
13,Grinnell,US,41.743,-92.7224,42.78,97,100,8.05
14,Dunedin,NZ,-45.8742,170.5036,57.79,49,82,15.01
15,Busselton,AU,-33.65,115.3333,62.58,54,0,9.42
16,Nikolskoye,RU,59.7035,30.7861,26.49,88,17,3.71
17,Christchurch,NZ,-43.5333,172.6333,62.42,63,75,18.41
18,Krasni Okny,UA,47.5404,29.46,50.05,81,100,11.36
19,Isangel,VU,-19.55,169.2667,86.11,79,40,4.61
20,Hambantota,LK,6.1241,81.1185,75.54,100,40,1.14
21,Sobolevo,RU,54.4299,31.8996,28.27,79,6,6.35
22,Robertsport,LR,6.7533,-11.3686,79.5,81,100,3.56
23,Puerto Ayora,EC,-0.7393,-90.3518,67.06,80,93,11.86
24,Clyde River,CA,70.4692,-68.5914,7.03,72,0,21.85
25,Cocobeach,GA,1.0002,9.5823,78.87,82,100,2.68
26,Nome,US,64.5011,-165.4064,21.27,63,0,6.91
27,Lompoc,US,34.6391,-120.4579,64.02,52,0,18.41
28,Saint George,US,37.1041,-113.5841,55.44,29,0,12.66
29,Bluff,NZ,-46.6,168.3333,50.76,61,87,23.17
30,Vaini,TO,-21.2,-175.2,82.56,69,20,11.5
31,New Norfolk,AU,-42.7826,147.0587,64.71,49,2,3.0
32,Iqaluit,CA,63.7506,-68.5145,20.93,53,75,5.75
33,Hilo,US,19.7297,-155.09,78.62,85,75,5.75
34,Mala,PE,-12.6581,-76.6308,64.02,83,24,6.53
35,Chokurdakh,RU,70.6333,147.9167,-10.88,91,100,3.69
36,Jamestown,US,42.097,-79.2353,67.59,66,0,10.36
37,Tres Arroyos,AR,-38.3739,-60.2798,60.22,47,97,10.85
38,High Level,CA,58.5169,-117.136,15.91,92,75,8.05
39,Lyuban,BY,52.7985,28.0048,36.1,95,11,9.62
40,Tabuk,PH,17.4189,121.4443,79.18,77,67,2.33
41,Mataura,NZ,-46.1927,168.8643,53.98,52,82,11.45
42,Severo-Kurilsk,RU,50.6789,156.125,39.34,73,90,19.66
43,Torbay,CA,47.6666,-52.7314,44.38,94,0,8.05
44,Ruwi,OM,23.5996,58.5507,78.49,51,27,3.31
45,Ust-Tsilma,RU,65.441,52.1498,12.29,96,56,3.0
46,Vysokogornyy,RU,50.1167,139.15,20.95,71,99,5.68
47,Longyearbyen,SJ,78.2186,15.6401,30.04,80,75,5.75
48,Punta Arenas,CL,-53.15,-70.9167,55.51,71,75,8.05
49,Dombarovskiy,RU,50.7587,59.5386,22.51,94,84,9.42
50,Sotik,KE,-0.6833,35.1187,55.58,93,100,2.71
51,Lebu,CL,-37.6167,-73.65,51.3,90,100,6.11
52,Baruun-Urt,MN,46.6806,113.2792,26.82,45,93,6.46
53,Sioux Lookout,CA,50.1001,-91.917,28.47,74,20,2.3
54,Faanui,PF,-16.4833,-151.75,75.6,89,100,18.84
55,Castro,BR,-24.7911,-50.0119,47.91,86,1,6.04
56,Mount Gambier,AU,-37.8333,140.7667,67.48,48,61,7.02
57,Kruisfontein,ZA,-34.0033,24.7314,62.89,95,55,4.94
58,Phalaborwa,ZA,-23.943,31.1411,75.61,64,100,3.87
59,Bhag,PK,29.0415,67.8239,78.37,25,98,5.48
60,Dikson,RU,73.5069,80.5464,22.26,97,100,6.62
61,Saldanha,ZA,-33.0117,17.9442,59.05,95,14,5.39
62,Albany,US,42.6001,-73.9662,64.81,70,99,3.96
63,Chifeng,CN,42.2683,118.9636,36.72,29,0,6.91
64,Cayenne,GF,4.9333,-52.3333,75.24,100,0,0.0
65,Kutum,SD,14.2,24.6667,64.04,28,29,7.14
66,Fortuna,US,40.5982,-124.1573,59.94,89,100,3.42
67,Great Yarmouth,GB,52.6083,1.7305,43.45,91,6,11.43
68,Deputatskiy,RU,69.3,139.9,-11.85,91,93,2.86
69,Barrow,US,71.2906,-156.7887,15.82,79,100,10.36
70,San Cristobal,VE,7.7669,-72.225,71.78,99,100,3.44
71,Sept-Iles,CA,50.2001,-66.3821,50.43,90,100,5.75
72,Imbituba,BR,-28.24,-48.6703,58.53,84,1,5.08
73,Khilok,RU,51.3674,110.4676,27.48,68,99,3.36
74,Ust-Nera,RU,64.5667,143.2,-0.92,95,100,2.95
75,Port Hawkesbury,CA,45.6169,-61.3485,57.15,75,0,11.5
76,Ngunguru,NZ,-35.6167,174.5,67.55,57,0,7.36
77,Port Alfred,ZA,-33.5906,26.891,66.18,96,100,8.52
78,Mugur-Aksy,RU,50.35,90.5,17.38,78,92,5.28
79,Erenhot,CN,43.6475,111.9767,32.13,41,12,7.61
80,Pevek,RU,69.7008,170.3133,-5.31,90,5,4.05
81,Dera Ghazi Khan,PK,30.0561,70.6348,73.06,36,2,7.23
82,Kattivakkam,IN,13.2167,80.3167,77.09,82,6,7.83
83,Simav,TR,39.0882,28.9777,51.04,55,1,2.04
84,Laela,TZ,-8.5667,32.05,68.94,52,100,1.83
85,Katsuura,JP,35.1333,140.3,59.02,67,100,14.52
86,Churachandpur,IN,24.3333,93.6667,60.8,94,13,1.52
87,Lavrentiya,RU,65.5833,-171.0,16.36,76,5,10.65
88,Alofi,NU,-19.0595,-169.9187,80.49,69,75,18.41
89,Port Arthur,CN,38.8,121.2667,54.91,44,0,19.1
90,Copiapo,CL,-27.3667,-70.3333,53.29,64,0,1.14
91,Qaanaaq,GL,77.484,-69.3632,23.23,80,100,6.78
92,Igrim,RU,63.1906,64.4162,17.56,96,97,3.24
93,Tuktoyaktuk,CA,69.4541,-133.0374,10.4,85,75,10.36
94,Odda,NO,60.0691,6.5457,47.77,99,100,5.41
95,Airai,TL,-8.9266,125.4092,74.07,52,100,1.41
96,Khatanga,RU,71.9667,102.5,-16.08,100,98,1.81
97,Severo-Yeniseyskiy,RU,60.3725,93.0408,16.47,99,99,2.66
98,Nantucket,US,41.2835,-70.0995,62.74,93,0,9.22
99,Staroaleyskoye,RU,51.0061,82.0,42.82,64,100,7.74
100,Lokoja,NG,7.8024,6.743,76.91,74,95,1.3
101,Hithadhoo,MV,-0.6,73.0833,81.03,75,18,10.78
102,Georgetown,MY,5.4112,100.3354,80.53,91,40,4.61
103,Bandarbeyla,SO,9.4942,50.8122,77.29,81,10,5.55
104,Lorengau,PG,-2.0226,147.2712,86.49,64,86,5.1
105,Haines Junction,CA,60.7522,-137.5108,13.95,57,100,10.36
106,Zaozerne,UA,45.1582,33.2787,49.75,71,12,7.61
107,Dobsina,SK,48.8207,20.3699,49.84,91,100,0.78
108,Tasiilaq,GL,65.6145,-37.6368,33.96,92,100,20.96
109,Hobart,AU,-42.8794,147.3294,65.05,72,34,4.68
110,Cape Town,ZA,-33.9258,18.4232,64.9,87,0,11.01
111,Lagoa Nova,BR,-6.1,-36.4833,71.82,75,99,7.87
112,Butaritari,KI,3.0707,172.7902,79.92,73,100,6.67
113,Stornoway,GB,58.2093,-6.3865,37.36,93,71,1.14
114,Bayshore Gardens,US,27.4253,-82.5904,80.58,65,20,12.66
115,Tual,ID,-5.6667,132.75,85.08,69,59,11.43
116,Havelock,US,34.8791,-76.9013,71.92,91,100,4.61
117,Juneau,US,58.3019,-134.4197,36.21,97,100,3.44
118,Sechura,PE,-5.5569,-80.8222,64.08,75,11,15.95
119,Saskylakh,RU,71.9167,114.0833,-0.76,97,99,8.21
120,Sao Joao Da Barra,BR,-21.6403,-41.0511,68.09,76,5,10.67
121,Maxixe,MZ,-23.8597,35.3472,74.7,83,92,10.38
122,Carlsbad,US,33.1581,-117.3506,67.89,60,0,15.01
123,Urucui,BR,-7.2294,-44.5561,71.92,97,62,4.5
124,Upernavik,GL,72.7868,-56.1549,22.46,78,100,29.68
125,Fengkou,CN,30.0833,113.2667,60.46,59,100,6.96
126,Esperance,AU,-33.8667,121.9,62.2,59,1,11.99
127,Mahebourg,MU,-20.4081,57.7,70.09,94,40,4.61
128,Ponta Do Sol,PT,32.6667,-17.1,71.71,86,7,1.59
129,Menzelinsk,RU,55.7271,53.1026,28.9,90,93,3.04
130,Jalu,LY,29.0331,21.5482,62.92,55,0,3.13
131,Okhotsk,RU,59.3833,143.3,25.09,57,96,21.5
132,Hermanus,ZA,-34.4187,19.2345,63.81,94,32,7.27
133,Naze,JP,28.3667,129.4833,67.12,62,8,15.5
134,Cockburn Town,TC,21.4612,-71.1419,80.44,70,13,12.71
135,Owerri,NG,5.4833,7.0304,73.15,95,99,3.0
136,Kulhudhuffushi,MV,6.6221,73.07,80.91,68,87,2.64
137,Bubaque,GW,11.2833,-15.8333,84.4,59,99,6.6
138,Rikitea,PF,-23.1203,-134.9692,70.99,70,7,14.47
139,Madras,IN,13.0878,80.2785,76.98,94,75,4.61
140,Daru,PG,-9.0763,143.2092,85.06,72,52,8.84
141,Rocha,UY,-34.4833,-54.3333,50.77,93,0,4.47
142,Ambilobe,MG,-13.2,49.05,67.6,83,0,4.03
143,Mao,ES,39.8885,4.2658,61.36,51,0,6.91
144,Alwar Tirunagari,IN,8.6,77.95,76.68,85,100,8.57
145,Honiara,SB,-9.4333,159.95,86.02,67,99,3.24
146,Treinta Y Tres,UY,-33.2333,-54.3833,51.03,93,0,7.72
147,Elko,US,41.0002,-115.5012,40.05,79,96,13.0
148,Praia Da Vitoria,PT,38.7333,-27.0667,65.75,100,100,7.11
149,Ondjiva,AO,-17.0667,15.7333,74.41,21,100,3.02
150,Batagay,RU,67.6333,134.6333,-7.53,92,100,1.5
151,Borogontsy,RU,62.6683,131.1683,-1.88,96,93,1.54
152,Maniitsoq,GL,65.4167,-52.9,24.55,81,89,7.02
153,Vestmannaeyjar,IS,63.4427,-20.2734,44.67,81,98,34.85
154,Buala,SB,-8.145,159.5921,83.93,72,100,3.11
155,Necochea,AR,-38.5473,-58.7368,57.47,64,4,16.26
156,Tiksi,RU,71.6872,128.8694,-2.36,98,100,1.83
157,Korablino,RU,53.9164,40.0133,32.83,96,100,5.06
158,Talnakh,RU,69.4865,88.3972,15.21,95,100,11.5
159,Piacabucu,BR,-10.4056,-36.4344,72.37,91,100,7.92
160,Ostrovnoy,RU,68.0531,39.5131,36.45,96,100,9.89
161,Bastia,FR,42.6667,9.3333,60.3,59,75,5.75
162,Zhigansk,RU,66.7697,123.3711,6.94,95,100,11.34
163,Bathsheba,BB,13.2167,-59.5167,81.21,78,20,11.5
164,Salalah,OM,17.0151,54.0924,73.49,68,0,4.61
165,East London,ZA,-33.0153,27.9116,66.79,89,97,9.8
166,Santa Isabel Do Rio Negro,BR,-0.4139,-65.0192,72.59,87,84,1.86
167,Young,UY,-32.6833,-57.6333,55.63,76,0,9.86
168,Kutoarjo,ID,-7.7169,109.9128,80.11,86,100,1.79
169,Leningradskiy,RU,69.3833,178.4167,0.05,87,11,6.02
170,Puerto Colombia,CO,10.9878,-74.9547,78.89,83,100,9.75
171,Portland,US,45.5234,-122.6762,58.93,93,100,16.11
172,Henties Bay,NA,-22.116,14.2845,57.81,91,0,4.56
173,Ixtapa,MX,20.7,-105.2,81.63,74,20,8.05
174,Sasaram,IN,24.951,84.0149,66.25,67,0,3.0
175,Husavik,IS,66.0449,-17.3389,35.53,83,100,8.05
176,Vardo,NO,70.3705,31.1107,33.78,86,100,16.11
177,Davila,PH,18.4726,120.5763,78.78,70,2,3.91
178,Dingle,PH,10.9995,122.6711,83.17,78,26,9.06
179,Nioro,GM,13.35,-15.75,74.97,31,90,2.48
180,Sao Filipe,CV,14.8961,-24.4956,80.2,61,100,8.19
181,Bredasdorp,ZA,-34.5322,20.0403,60.87,96,48,3.27
182,Grindavik,IS,63.8424,-22.4338,43.27,81,75,31.07
183,Tahoua,NE,14.8888,5.2692,75.18,31,0,2.3
184,Matagami,CA,49.7502,-77.6328,41.11,93,100,14.97
185,Norman Wells,CA,65.282,-126.8329,8.64,78,75,10.36
186,Atuona,PF,-9.8,-139.0333,77.5,76,7,13.91
187,Bambous Virieux,MU,-20.3428,57.7575,70.05,94,40,4.61
188,Chuy,UY,-33.6971,-53.4616,57.69,87,0,9.73
189,Zhicheng,CN,30.2956,111.5047,58.68,65,100,2.53
190,Prince Rupert,CA,54.3161,-130.3201,44.29,72,40,26.46
191,Marawi,PH,7.9986,124.2928,78.4,73,98,1.77
192,Tabou,CI,4.423,-7.3528,77.76,87,100,5.68
193,Faya,SA,18.3851,42.4509,61.32,80,16,3.89
194,Provideniya,RU,64.3833,-173.3,14.72,76,2,8.19
195,Ust-Kut,RU,56.7938,105.7672,23.23,97,98,2.57
196,Sembe,CG,1.6481,14.5806,68.54,95,98,0.74
197,Srikakulam,IN,18.3,83.9,71.89,85,0,5.86
198,Moussoro,TD,13.6408,16.4901,73.69,18,100,8.66
199,Myre,NO,69.1036,15.9492,45.34,77,100,8.52
200,Iralaya,HN,15.0,-83.2333,79.75,80,21,4.45
201,Victoria,HK,22.2855,114.1577,70.32,87,82,11.99
202,Taywarah,AF,33.35,64.4167,32.47,79,0,2.48
203,Namatanai,PG,-3.6667,152.4333,83.95,72,98,3.85
204,Quelimane,MZ,-17.8786,36.8883,76.95,94,40,8.05
205,Saint-Philippe,RE,-21.3585,55.7679,69.39,85,5,6.06
206,Paamiut,GL,61.994,-49.6678,27.43,80,12,13.53
207,Iracoubo,GF,5.4802,-53.2011,76.33,87,100,3.69
208,Carnarvon,AU,-24.8667,113.6333,69.96,56,0,19.98
209,Tadine,NC,-21.55,167.8833,81.81,69,26,9.84
210,Hualmay,PE,-11.0964,-77.6139,62.6,83,10,9.04
211,Hasaki,JP,35.7333,140.8333,58.21,60,100,14.36
212,Tessalit,ML,20.1986,1.0114,72.03,19,0,9.1
213,Araouane,ML,18.9048,-3.5265,75.9,15,0,7.63
214,Turukhansk,RU,65.8167,87.9833,14.31,96,100,7.27
215,Caravelas,BR,-17.7125,-39.2481,71.13,74,100,14.14
216,Kajaani,FI,64.2273,27.7285,39.25,93,100,4.61
217,Xinmin,CN,41.9908,122.8253,41.2,29,0,4.92
218,Hargeysa,SO,9.56,44.065,63.86,92,38,9.51
219,Nerchinskiy Zavod,RU,51.3088,119.61,10.96,76,100,3.13
220,Lashio,MM,22.9333,97.75,61.68,73,8,1.28
221,Nanortalik,GL,60.1432,-45.2371,32.5,73,77,2.77
222,Port Augusta,AU,-32.5,137.7667,76.14,29,100,12.97
223,Pontianak,ID,-0.0333,109.3333,76.98,94,20,2.3
224,Asgabat,TM,37.95,58.3833,46.26,81,2,2.3
225,Mikhaylovka,RU,50.06,43.2379,34.79,98,100,3.6
226,Dungarpur,IN,23.8333,73.7167,71.89,34,0,2.39
227,Touros,BR,-5.1989,-35.4608,77.65,83,99,7.43
228,Iquitos,PE,-3.7481,-73.2472,73.44,73,0,1.14
229,De-Kastri,RU,51.4667,140.7833,29.01,73,100,9.71
230,Asasa,ET,7.1,39.2,49.66,86,23,2.48
231,Camana,PE,-16.6228,-72.7111,63.52,79,62,6.73
232,Cherskiy,RU,68.75,161.3,4.75,70,83,5.3
233,Gitega,BI,-3.5,29.95,59.14,90,100,2.71
234,Poum,NC,-20.2333,164.0167,78.73,78,8,8.52
235,Ahipara,NZ,-35.1667,173.1667,65.71,64,2,12.62
236,Mattru,SL,7.6244,-11.8332,74.59,94,46,2.57
237,Zambrano,CO,9.7472,-74.8153,76.17,91,100,1.23
238,Gualeguay,AR,-33.1416,-59.3097,61.48,50,2,11.07
239,Fleet,GB,51.2833,-0.8333,44.62,79,92,5.75
240,Dzhebariki-Khaya,RU,62.2167,135.8,0.18,95,100,3.02
241,Bengkulu,ID,-3.8004,102.2655,77.79,85,100,4.25
242,Narasannapeta,IN,18.4167,84.05,71.67,84,0,5.86
243,Alice Springs,AU,-23.7,133.8833,78.35,14,0,10.36
244,Sorong,ID,-0.8833,131.25,83.57,72,13,2.8
245,Derac,HT,19.65,-71.8167,75.54,83,21,2.39
246,Verkhnevilyuysk,RU,63.4453,120.3167,9.84,92,100,8.1
247,Ancud,CL,-41.8697,-73.8203,51.67,93,98,7.31
248,Vostok,RU,46.4856,135.8833,24.98,42,91,7.02
249,Biltine,TD,14.5333,20.9167,71.69,19,82,6.35
250,Sile,TR,41.1754,29.6133,54.27,63,100,4.59
251,Muravlenko,RU,63.7898,74.523,9.79,100,89,4.65
252,Cabo San Lucas,MX,22.8909,-109.9124,80.51,62,20,12.66
253,Barranca,PE,-10.75,-77.7667,61.95,83,12,7.63
254,Okha,RU,53.5739,142.9478,32.52,74,100,20.62
255,Itarema,BR,-2.9248,-39.9167,77.25,85,40,6.58
256,Tuatapere,NZ,-46.1333,167.6833,55.08,53,67,14.43
257,Ha Tinh,VN,18.3333,105.9,73.09,77,32,6.71
258,Fukue,JP,32.6881,128.8419,59.36,47,20,13.8
259,Quartucciu,IT,39.2519,9.1794,57.04,80,40,13.8
260,Watsa,CD,3.0372,29.5355,61.86,98,75,0.85
261,Oak Harbor,US,48.2932,-122.6432,56.79,93,100,6.91
262,Kavieng,PG,-2.5744,150.7967,84.78,68,100,4.74
263,Swan Hill,AU,-35.3378,143.5544,69.39,43,7,5.82
264,Ikom,NG,5.9667,8.7063,71.85,96,49,2.84
265,Lagoa,PT,39.05,-27.9833,63.55,82,100,8.68
266,Kahului,US,20.8947,-156.47,89.62,60,40,20.71
267,Bambanglipuro,ID,-7.95,110.2833,80.35,84,100,4.14
268,Puerto Del Rosario,ES,28.5004,-13.8627,71.35,73,100,17.27
269,Hohhot,CN,40.8106,111.6522,25.09,68,0,6.71
270,San Patricio,US,28.017,-97.5169,80.83,83,0,17.76
271,Opuwo,NA,-18.0607,13.84,71.08,20,98,6.02
272,Vila,PT,42.0304,-8.1588,40.08,91,4,3.29
273,Seoul,KR,37.5683,126.9778,45.84,52,0,3.44
274,Kodiak,US,57.79,-152.4072,33.31,80,100,16.11
275,Shirvan,AZ,39.9509,48.8994,53.11,69,92,4.32
276,Berlevag,NO,70.8578,29.0864,37.4,93,100,10.36
277,Mayor Pablo Lagerenza,PY,-19.9309,-60.7718,67.23,43,0,2.04
278,Montepuez,MZ,-13.1256,38.9997,67.37,90,37,4.14
279,Cache Creek,CA,50.8101,-121.3246,36.72,94,96,6.24
280,Zeya,RU,53.75,127.2667,15.4,61,13,7.49
281,Peniche,PT,39.3558,-9.3811,52.45,92,8,8.99
282,Fuerte,PH,17.5381,120.3644,82.11,60,70,4.74
283,Sitka,US,57.0531,-135.33,39.09,81,75,6.91
284,Sao Joao,BR,-8.8756,-36.3667,67.14,92,100,4.05
285,Nautla,MX,20.2167,-96.7833,77.02,86,2,4.85
286,Russell,US,32.3502,-85.1999,67.23,77,0,3.44
287,Granada,ES,37.25,-3.25,49.3,41,16,3.15
288,Cortes,ES,41.9395,-1.4396,51.85,67,94,19.66
289,Ust-Maya,RU,60.4167,134.5333,1.58,93,49,4.05
290,Quatre Cocos,MU,-20.2078,57.7625,69.91,81,3,5.68
291,Leninskoye,KZ,41.7589,69.3864,50.29,90,98,3.98
292,Harbour Breton,CA,47.4833,-55.7983,48.69,91,21,9.82
293,Kilingi-Nomme,EE,58.1503,24.9642,40.41,77,12,7.36
294,Comodoro Rivadavia,AR,-45.8667,-67.5,62.46,67,0,11.5
295,Kanniyakumari,IN,8.0833,77.5667,77.22,84,100,8.03
296,Auki,SB,-8.7676,160.7034,82.96,77,78,4.09
297,Loanda,AO,-8.8368,13.2343,78.8,83,75,5.75
298,Guerrero Negro,MX,27.9769,-114.0611,69.73,32,0,18.41
299,Tuchola,PL,53.5879,17.8591,46.81,96,100,5.48
300,Krasnyy Chikoy,RU,50.3643,108.7512,20.52,78,100,2.37
301,Chico,US,39.7285,-121.8375,62.49,41,0,8.05
302,Fairbanks,US,64.8378,-147.7164,14.09,86,100,0.0
303,Camacha,PT,33.0833,-16.3333,65.62,88,75,12.66
304,Urumqi,CN,43.801,87.6005,36.55,75,0,2.24
305,Beringovskiy,RU,63.05,179.3167,20.16,85,100,8.16
306,Ampanihy,MG,-24.7,44.75,68.63,91,100,4.85
307,Ilulissat,GL,69.2167,-51.1,28.42,86,100,6.91
308,Kijang,KR,35.2442,129.2139,49.73,18,0,4.12
309,Asau,RO,46.4333,26.4,47.28,81,94,3.24
310,Biloela,AU,-24.4167,150.5,76.75,44,72,14.9
311,Broken Hill,AU,-31.95,141.4333,68.4,34,100,5.59
312,Kamaishi,JP,39.2667,141.8833,51.57,53,77,9.37
313,Nago,JP,26.5881,127.9761,72.45,65,92,12.41
314,Aykhal,RU,66.0,111.5,3.58,98,90,8.34
315,Novyye Gorki,RU,56.7253,41.0601,32.72,92,100,3.44
316,Chapais,CA,49.7834,-74.8492,58.78,73,100,16.33
317,Zhangjiakou,CN,40.81,114.8794,37.44,25,0,1.45
318,Charters Towers,AU,-20.1,146.2667,82.44,30,0,13.6
319,Novikovo,RU,51.1537,37.8879,32.68,83,65,4.09
320,Alice,US,27.7523,-98.0697,84.09,73,0,14.97
321,Arraial Do Cabo,BR,-22.9661,-42.0278,68.0,68,18,7.85
322,Bowen,AU,-20.0167,148.2333,79.39,60,6,21.43
323,Aktash,RU,50.3,87.7333,17.04,80,100,4.36
324,Vila Velha,BR,-20.3297,-40.2925,69.75,82,20,11.5
325,Pyaozerskiy,RU,65.8333,31.1667,37.99,92,100,10.65
326,College,US,64.8569,-147.8028,14.07,86,100,0.0
327,Kalmunai,LK,7.4167,81.8167,75.61,91,100,8.3
328,Port Elizabeth,ZA,-33.918,25.5701,66.49,94,100,5.75
329,Jardim,BR,-21.4803,-56.1381,61.77,62,0,5.7
330,Sao Sebastiao,BR,-23.76,-45.4097,63.68,79,97,1.16
331,Narsaq,GL,60.9167,-46.05,46.62,69,15,7.78
332,Junction City,US,39.0286,-96.8314,39.81,90,100,10.36
333,Saint-Pierre,RE,-21.3393,55.4781,69.48,64,0,9.22
334,Labuhan,ID,-6.8844,112.2051,83.62,74,93,3.83
335,Huanren,CN,41.2647,125.3667,37.26,36,0,4.32
336,Kuytun,RU,54.3419,101.5036,27.28,97,97,2.62
337,Suntar,RU,62.1444,117.6319,15.37,93,100,6.6
338,Luderitz,NA,-26.6481,15.1594,60.21,89,0,5.21
339,Hobyo,SO,5.3505,48.5268,79.63,74,33,7.67
340,Putina,PE,-15.4667,-69.4333,46.8,65,16,7.14
341,Oskemen,KZ,49.9565,82.6119,35.56,80,75,2.24
342,Singarayakonda,IN,15.25,80.0333,75.31,85,48,6.42
343,Mineros,BO,-17.1167,-63.2333,66.25,46,0,2.53
344,Port Blair,IN,11.6667,92.75,77.04,83,40,2.3
345,Presidente Epitacio,BR,-21.7633,-52.1156,63.57,57,0,9.06
346,Visby,SE,57.6409,18.296,49.82,81,100,13.8
347,Kaduna,NG,10.5222,7.4383,68.29,32,77,5.26
348,Gamba,GA,-2.65,10.0,75.33,89,78,3.74
349,Peleduy,RU,59.6289,112.7406,16.12,90,100,8.32
350,Manzhouli,CN,49.6,117.4333,23.76,74,100,4.21
351,Sabang,ID,5.8933,95.3214,79.2,80,100,8.77
352,Santa,PH,17.486,120.4348,82.02,60,66,4.32
353,Kaitangata,NZ,-46.2817,169.8464,55.42,50,65,13.94
354,Broome,US,42.2506,-75.833,61.68,76,0,9.22
355,San Quintin,MX,30.4833,-115.95,63.7,42,72,10.51
356,Klaksvik,FO,62.2266,-6.589,41.92,94,100,20.15
357,Kaeo,NZ,-35.1,173.7833,74.32,68,0,2.84
358,Maragogi,BR,-9.0122,-35.2225,73.35,93,100,9.22
359,Lewiston,US,44.1003,-70.2148,62.64,64,0,8.05
360,Horconcitos,PA,8.4682,-81.8007,65.07,99,100,2.55
361,Olafsvik,IS,64.8945,-23.7142,41.72,76,100,15.03
362,Miquelon,PM,47.0975,-56.3814,50.0,86,25,13.6
363,Carmichael,US,38.6171,-121.3283,64.81,41,0,5.75
364,Jawhar,SO,2.7809,45.5005,73.81,91,7,5.39
365,Azambuja,PT,39.0703,-8.8682,56.39,93,17,3.87
366,Geraldton,AU,-28.7667,114.6,64.81,59,0,16.11
367,Port Macquarie,AU,-31.4333,152.9167,66.88,88,75,2.3
368,Codrington,AU,-38.2667,141.9667,64.96,62,100,6.53
369,Marinette,US,45.1,-87.6307,48.65,93,100,11.5
370,Anadyr,RU,64.75,177.4833,-4.05,89,23,1.92
371,Petropavlovsk-Kamchatskiy,RU,53.0452,158.6483,36.19,87,40,6.71
372,Santo Antonio Do Ica,BR,-3.1022,-67.9397,76.24,72,100,0.87
373,Perth,AU,-31.9333,115.8333,65.03,63,20,13.8
374,Hofn,IS,64.2539,-15.2082,38.34,72,100,9.06
375,Biak,ID,-0.9131,122.8766,82.9,68,91,3.04
376,Mizan Teferi,ET,6.9833,35.5833,61.14,90,85,2.3
377,Winslow,US,35.0242,-110.6974,50.18,23,0,8.05
378,Nipawin,CA,53.3668,-104.0009,24.84,93,20,8.05
379,Lahij,YE,13.1667,44.5833,71.69,86,5,2.91
380,Mahibadhoo,MV,3.7833,72.9667,80.87,76,84,10.69
381,Pangnirtung,CA,66.1451,-65.7125,5.36,91,88,7.56
382,Viedma,AR,-40.8135,-62.9967,64.13,55,100,18.86
383,Dalbandin,PK,28.8947,64.4101,62.74,42,3,7.65
384,Marystown,CA,47.1666,-55.1483,47.8,91,100,9.8
385,Shingu,JP,33.7333,135.9833,63.95,47,0,0.98
386,Tuy Hoa,VN,13.0833,109.3,77.7,79,66,8.88
387,Gao,ML,16.6362,1.637,73.2,21,25,11.54
388,San Policarpo,PH,12.1791,125.5072,82.06,79,100,3.49
389,Sorland,NO,67.667,12.6934,48.06,85,100,10.04
390,Yala,TH,6.3333,101.25,78.6,96,100,1.16
391,Raudeberg,NO,61.9875,5.1352,43.95,1,100,7.9
392,Beyneu,KZ,45.3167,55.2,41.56,69,100,6.33
393,Salinas,US,36.6777,-121.6555,63.57,67,0,9.22
394,Lata,PT,40.1629,-8.3327,46.08,75,9,2.91
395,Hamilton,US,39.1834,-84.5333,69.78,59,0,14.97
396,Beloha,MG,-25.1667,45.05,69.26,92,94,6.93
397,Rundu,NA,-17.9333,19.7667,68.13,81,23,0.56
398,Coihaique,CL,-45.5752,-72.0662,68.61,52,0,1.14
399,Constitucion,CL,-35.3333,-72.4167,50.97,86,93,3.85
400,San Pedro,PH,14.35,121.0167,86.27,69,20,2.3
401,Ayutla,MX,20.1167,-104.3333,67.01,65,0,3.36
402,Japura,ID,-0.3167,102.35,72.82,97,100,1.92
403,Jizan,SA,17.3333,42.6667,83.34,70,9,2.71
404,Blagodatnoye,RU,45.3997,42.5867,45.52,94,100,9.19
405,Donskoye,RU,45.4552,41.9741,46.53,92,100,8.75
406,Buraydah,SA,26.326,43.975,68.45,36,100,9.57
407,Asyut,EG,27.181,31.1837,64.58,50,10,7.63
408,Sisimiut,GL,66.9395,-53.6735,20.16,86,77,3.22
409,Puerto Baquerizo Moreno,EC,-0.9,-89.6,67.19,94,100,14.97
410,Riyadh,SA,24.6877,46.7219,68.14,51,90,7.16
411,Artyom,AZ,40.4723,50.333,55.54,78,74,27.11
412,Waitati,NZ,-45.75,170.5667,57.79,47,82,14.27
413,Cidreira,BR,-30.1811,-50.2056,62.06,72,10,8.03
414,Whitehorse,CA,60.7161,-135.0538,14.02,65,100,10.36
415,Saint-Louis,SN,16.3333,-15.0,78.44,11,89,10.56
416,Dortyol,TR,36.8616,36.2289,63.95,79,14,1.34
417,Aswan,EG,24.0934,32.907,69.1,32,0,5.75
418,Iranshahr,IR,27.2025,60.6848,68.34,37,0,0.0
419,Chicama,PE,-7.8447,-79.1469,59.54,78,50,5.14
420,Gat,IL,31.61,34.7642,63.81,66,0,5.21
421,Kirakira,SB,-10.4544,161.9205,83.88,76,81,6.22
422,Souillac,MU,-20.5167,57.5167,70.18,94,40,4.61
423,Columbus,US,39.9612,-82.9988,67.19,63,0,5.75
424,Skjervoy,NO,70.0311,20.9714,35.6,69,100,7.38
425,Miram Shah,PK,33.0086,70.0697,64.36,46,100,3.71
426,Hirado,JP,33.3597,129.5531,59.32,45,6,9.71
427,Marzuq,YE,14.4,46.4667,64.96,68,5,0.27
428,Atar,MR,20.5169,-13.0499,74.57,14,0,6.55
429,Laguna,US,38.421,-121.4238,64.69,43,0,4.61
430,Carutapera,BR,-1.195,-46.02,73.67,95,100,2.93
431,Tautira,PF,-17.7333,-149.15,72.82,95,100,21.88
432,Arlit,NE,18.7369,7.3853,72.45,19,100,11.16
433,Yagodnoye,RU,62.55,149.6667,7.5,94,100,3.13
434,Poltavka,RU,54.3663,71.7632,29.95,77,63,18.07
435,Huilong,CN,31.8111,121.655,59.94,53,85,10.6
436,Matata,NZ,-37.8833,176.75,75.96,45,2,10.31
437,Soubre,CI,5.7856,-6.6083,72.48,99,100,1.77
438,Oudtshoorn,ZA,-33.5907,22.2014,61.16,81,90,3.83
439,Palmer,US,42.1584,-72.3287,63.01,76,75,11.5
440,Madingou,CG,-4.1536,13.55,73.69,93,100,1.36
441,Umm Lajj,SA,25.0213,37.2685,74.82,61,94,0.45
442,Inhambane,MZ,-23.865,35.3833,75.2,79,90,11.83
443,Ajaccio,FR,42.0,8.9167,55.45,87,0,5.75
444,Gari,RU,59.4307,62.3497,25.68,90,100,13.73
445,Stromness,GB,58.965,-3.296,46.87,87,100,11.99
446,Manica,FR,49.0,-1.1667,44.15,87,73,2.91
447,Bodden Town,KY,19.2833,-81.25,82.4,75,20,10.36
448,Atikokan,CA,48.7555,-91.6216,29.16,64,0,1.43
449,Adrar,MR,20.5022,-10.0711,71.62,15,0,9.73
450,Noyabrsk,RU,63.1994,75.4507,18.46,99,94,7.16
451,Saint-Joseph,RE,-21.3667,55.6167,68.38,83,5,6.17
452,Whitley Bay,GB,55.0397,-1.4471,44.08,94,0,4.61
453,Guantanamo,CU,20.1444,-75.2092,80.17,86,2,4.81
454,Along,IN,28.1667,94.7667,60.26,74,0,1.43
455,Zapolyarnyy,RU,69.4154,30.8136,34.88,99,100,6.4
456,Toktogul,KG,41.8708,72.9402,46.94,97,100,0.72
457,Chebsara,RU,59.2002,38.8356,22.33,97,17,3.96
458,Lumphat,KH,13.4878,106.9816,75.07,78,92,5.73
459,Te Anau,NZ,-45.4167,167.7167,56.43,45,14,4.85
460,Katobu,ID,-4.9408,122.5276,82.56,77,100,3.38
461,At-Bashi,KG,41.1702,75.8106,32.86,90,94,1.95
462,Inirida,CO,3.8653,-67.9239,70.66,88,49,0.43
463,Atasu,KZ,48.6814,71.6433,30.4,80,91,10.0
464,Hovd,MN,48.0056,91.6419,21.54,73,2,0.85
465,Arica,CL,-18.475,-70.3042,63.95,72,0,3.44
466,Seymchan,RU,62.8833,152.4333,5.34,94,100,8.25
467,Zhangzhou,CN,24.5133,117.6556,67.93,74,97,0.67
468,Chernyshevskiy,RU,63.0128,112.4714,11.93,93,100,6.08
469,Port Lincoln,AU,-34.7333,135.8667,70.7,47,12,9.66
470,Yar-Sale,RU,66.8333,70.8333,10.58,91,24,8.79
471,Burnie,AU,-41.0667,145.9167,59.94,70,0,8.32
472,Kununurra,AU,-15.7667,128.7333,84.18,65,55,6.91
473,Kisangani,CD,0.5167,25.2,67.55,98,100,2.06
474,Makokou,GA,0.5738,12.8642,67.19,99,100,0.87
475,Morant Bay,JM,17.8815,-76.4093,80.22,80,1,7.49
476,Richards Bay,ZA,-28.783,32.0377,69.78,93,1,4.94
477,Roma,US,43.2128,-75.4557,63.82,64,0,4.61
478,Kasongo-Lunda,CD,-6.4667,16.8167,68.63,99,81,1.63
479,Silopi,TR,37.2497,42.4694,51.17,36,4,2.73
480,Claremore,US,36.3126,-95.6161,48.42,100,100,8.05
481,Fort Nelson,CA,58.8053,-122.7002,11.79,79,75,10.36
482,San Lawrenz,MT,36.0553,14.204,66.85,78,97,1.01
483,Los Llanos De Aridane,ES,28.6585,-17.9182,67.75,82,100,11.5
484,Mango,US,27.9797,-82.3065,79.02,73,0,3.44
485,Dicabisagan,PH,17.0818,122.4157,83.14,72,95,3.0
486,Aransas Pass,US,27.9095,-97.15,80.62,89,0,14.97
487,Shemonaikha,KZ,50.6328,81.9056,41.59,64,100,7.23
488,Korla,CN,41.7597,86.1469,42.28,45,100,3.44
489,Kenitra,MA,34.261,-6.5802,57.96,91,7,3.69
490,Hami,CN,42.8,93.45,43.05,31,98,1.81
491,Ariquemes,BR,-9.9133,-63.0408,70.63,57,17,2.57
492,Vao,NC,-22.6667,167.4833,74.98,87,66,20.83
493,Ndele,CF,8.4109,20.6473,71.04,51,13,0.16
494,Maneadero,MX,31.7167,-116.5667,62.1,70,34,7.0
495,Pisco,PE,-13.7,-76.2167,62.65,82,0,13.8
496,Barcarena,BR,-1.5058,-48.6258,75.25,81,100,5.97
497,Muncar,ID,-8.4333,114.3333,82.44,80,100,2.08
498,Magadan,RU,59.5667,150.8,25.54,93,100,12.71
499,Valverde Del Camino,ES,37.5751,-6.7543,56.03,45,18,3.98
500,Conakry,GN,9.538,-13.6773,81.7,79,10,7.09
501,Kupang,ID,-10.1667,123.5833,88.57,53,92,1.59
502,Coari,BR,-4.085,-63.1414,75.94,78,91,1.97
503,Kieta,PG,-6.2167,155.6333,84.85,72,100,5.5
504,Xuanhua,CN,40.6103,115.0447,39.81,23,0,1.63
505,Luena,AO,-11.7833,19.9167,61.65,95,98,3.4
506,Marienburg,PL,54.0359,19.0266,46.89,92,100,9.19
507,Jishu,CN,44.3167,126.8,33.1,43,2,10.85
508,Jinzhou,CN,41.1078,121.1417,47.48,20,0,8.88
509,Mgandu,TZ,-5.95,34.1333,69.44,47,100,5.59
510,Vanimo,PG,-2.6741,141.3028,83.89,74,95,2.39
511,Barcelos,PT,41.5388,-8.6151,51.85,76,5,3.78
512,Namibe,AO,-15.1961,12.1522,64.87,79,18,7.76
513,Manado,ID,1.487,124.8455,88.57,66,20,3.44
514,Zachary,US,30.6485,-91.1565,76.73,94,100,11.5
515,Broadstairs,GB,51.3591,1.4394,45.19,82,1,10.98
516,Teguldet,RU,57.3064,88.1667,19.35,96,54,4.34
517,Pierre,US,44.3683,-100.351,40.86,69,0,8.05
518,Podor,MR,16.6527,-14.9587,78.75,50,0,2.3
519,Polunochnoye,RU,60.8697,60.4153,8.26,98,74,4.5
520,Ahuimanu,US,21.4447,-157.8378,85.14,75,100,7.0
521,Baracoa,CU,20.3467,-74.4958,75.85,83,22,4.79
522,Karaton,ID,-6.3424,106.1045,77.67,80,100,3.91
523,Tilichiki,RU,60.4667,166.1,34.5,98,100,11.32
524,Mantua,IT,45.1667,10.7833,50.95,81,30,1.01
525,Monte Patria,CL,-30.6919,-70.9467,64.45,48,100,3.76
526,Verkhnetulomskiy,RU,68.6073,31.7962,37.53,99,100,5.44
527,Urengoy,RU,65.9667,78.3667,11.84,98,95,6.31
528,San Ignacio,BZ,17.1561,-89.0714,77.14,94,75,4.61
529,Ketchikan,US,55.3422,-131.6461,39.31,84,83,3.8
530,Vestmanna,FO,62.1564,-7.1664,40.12,93,75,9.22
531,Areia Branca,BR,-4.9561,-37.1369,78.67,82,100,9.55
532,Rodrigues Alves,BR,-7.738,-72.6509,72.39,60,98,2.44
533,Belmonte,BR,-15.8631,-38.8828,67.84,87,100,14.03
534,Coffs Harbour,AU,-30.3,153.1333,64.36,82,100,8.05
535,Kansanshi,ZM,-12.0951,26.4273,59.18,95,88,1.86
536,Rusape,ZW,-18.5278,32.1284,62.15,86,12,3.2
537,San Buenaventura,MX,27.0833,-101.5333,75.69,33,0,23.09
538,Sampit,ID,-2.5333,112.95,81.61,76,100,2.06
539,Obregon,NI,11.9566,-85.9636,77.09,93,94,4.85
540,Ubala,CO,4.7478,-72.5369,71.58,84,100,4.14
541,Doha,QA,25.2867,51.5333,80.58,50,0,16.11
542,Road Town,VG,18.4167,-64.6167,80.64,78,20,9.22
543,Manthani,IN,18.65,79.6667,62.62,75,0,2.15
544,Troitskoye,RU,52.9821,84.6757,36.81,75,100,6.2
545,Kjollefjord,NO,70.9457,27.3465,39.25,93,100,6.91
546,Mitu,CO,1.1983,-70.1733,73.29,79,100,0.83
547,Hokitika,NZ,-42.7167,170.9667,56.88,55,8,15.37
548,Puri,IN,19.8,85.85,70.32,73,0,4.68
549,Andenes,NO,69.3143,16.1194,42.78,87,40,6.91
550,Mezen,RU,65.8522,44.24,33.33,97,100,6.31
551,Dwarka,IN,22.2394,68.9678,79.16,67,6,8.48
552,Lodeynoye Pole,RU,60.726,33.5531,27.54,94,20,2.17
553,Fortuna Foothills,US,32.6578,-114.4119,69.28,18,0,11.5
554,Egvekinot,RU,66.3167,-179.1667,3.96,74,0,3.62
555,Steamboat Springs,US,40.485,-106.8317,29.93,66,100,3.44
556,Pangody,RU,65.85,74.4859,11.21,98,90,6.31
557,Kingaroy,AU,-26.5333,151.8333,73.49,41,26,9.86
558,Pombia,IT,45.653,8.6336,50.25,80,61,6.15
559,Bontang,ID,0.1333,117.5,79.77,84,89,6.64
560,Letka,RU,59.6011,49.4232,25.81,96,91,3.44
561,Chulman,RU,56.8479,124.9104,0.34,92,100,2.37
562,Jibuti,DJ,11.5,42.5,72.32,78,11,9.26
563,Svetlyy,RU,54.675,20.1347,42.96,79,100,13.62
564,Hundorp,NO,61.5552,9.9407,42.12,99,100,2.84
565,Gerash,IR,27.6652,54.1371,60.94,75,90,3.76
566,Makakilo City,US,21.3469,-158.0858,83.95,67,100,13.8
567,Brae,GB,60.3964,-1.353,48.27,81,68,17.43
568,Meulaboh,ID,4.1363,96.1285,74.98,89,100,2.62
569,Cozumel,MX,20.5083,-86.9458,81.07,85,99,5.99
570,Port Hardy,CA,50.6996,-127.4199,44.78,100,100,5.75
571,Bay Roberts,CA,47.5999,-53.2648,45.14,94,100,1.01
572,Sungaipenuh,ID,-2.0833,101.3833,66.06,91,100,0.65
573,Nishihara,JP,26.1842,127.7558,72.68,69,75,18.41
574,Iquique,CL,-20.2208,-70.1431,62.64,75,48,3.67
575,Traverse City,US,44.7631,-85.6206,59.83,92,100,3.44
576,Lhokseumawe,ID,5.1801,97.1507,78.44,83,77,4.76
577,Sinnamary,GF,5.3833,-52.95,76.86,85,90,3.85
578,Batemans Bay,AU,-35.7167,150.1833,66.09,54,28,12.01
579,Lethem,GY,3.3803,-59.7968,75.76,85,100,2.77
580,Mehamn,NO,71.0357,27.8492,37.35,93,100,6.91
581,Rawson,AR,-43.3002,-65.1023,73.17,30,100,28.34
582,Pilar,BR,-9.5972,-35.9567,73.33,94,100,3.98
583,Suihua,CN,46.6406,126.9969,30.04,49,2,9.62
584,Kvareli,GE,41.9524,45.8151,45.23,69,6,5.48
585,Vozhega,RU,60.4725,40.2213,21.65,97,11,2.77
586,Xining,CN,36.6167,101.7667,37.24,54,0,0.85
587,Bereda,ES,43.2686,-7.5406,41.41,98,14,1.86
588,Heishan,CN,41.6892,122.1128,44.85,24,0,5.39
589,Pahrump,US,36.2083,-115.9839,59.31,21,14,3.0
590,Tornabe,HN,15.75,-87.55,82.38,83,40,8.05
591,Wajima,JP,37.4,136.9,50.68,87,75,2.3
592,Malindi,KE,-3.2175,40.1191,76.26,84,64,7.56
593,Mount Isa,AU,-20.7333,139.5,85.77,32,0,13.8
594,Pirapo,PY,-26.85,-55.5333,59.2,69,59,2.51
595,Farafangana,MG,-22.8167,47.8333,71.58,91,14,7.09
596,Karratha,AU,-20.7377,116.8463,84.94,38,6,7.38
597,Nova Odesa,UA,47.3078,31.7851,44.4,90,15,6.24
598,Kroya,ID,-7.6331,109.2461,80.01,84,100,3.22
599,Kavaratti,IN,10.5669,72.642,80.89,75,56,3.47
600,Lisakovsk,KZ,52.5369,62.4936,23.58,88,15,15.12
601,Kemijarvi,FI,66.7131,27.4306,41.9,83,100,11.86
602,Dahra,DZ,36.2546,0.8519,58.39,76,8,3.71
603,Jurm,AF,36.8648,70.8342,50.83,94,100,0.47
604,Molina,CL,-35.1167,-71.2833,58.73,67,99,8.05
605,Vegreville,CA,53.5001,-112.0518,26.65,74,100,6.91
606,Uray,RU,60.1247,64.7758,26.56,91,100,14.18
607,San Ramon,US,37.7799,-121.978,64.53,71,0,10.36
608,Preobrazheniye,RU,42.9019,133.9064,38.61,32,0,8.86
609,Xinxiang,CN,35.3089,113.8672,53.91,36,2,4.43
610,Jiehu,CN,35.5428,118.455,50.04,32,0,1.1
611,Bilma,NE,18.6853,12.9164,68.2,25,33,4.92
612,Aquiraz,BR,-3.9014,-38.3911,80.19,82,100,6.55
613,Ilebo,CD,-4.3167,20.5833,69.22,99,100,1.7
614,Kamarion,GR,36.8,25.8167,66.24,67,0,7.4
615,Machinga,MW,-15.1685,35.3,72.41,66,100,3.49
616,Olinda,BR,-8.0089,-34.8553,80.33,74,40,6.91
617,Porto Murtinho,BR,-21.6989,-57.8825,67.03,59,0,4.97
618,Mutoko,ZW,-17.397,32.2268,64.53,80,82,3.51
619,Herat,AF,34.5,62.0,48.81,77,6,3.78
620,Terney,RU,45.0503,136.6092,34.66,35,100,7.02
621,Mareeba,AU,-17.0,145.4333,80.44,69,81,8.1
622,Rio Grande,BR,-32.035,-52.0986,60.91,84,0,13.22
623,Villa Carlos Paz,AR,-31.4241,-64.4978,63.68,32,91,4.52
624,Grand Gaube,MU,-20.0064,57.6608,70.2,83,4,1.99
625,Sabaudia,IT,41.3003,13.0282,61.79,94,44,14.14
626,Ormara,PK,25.2088,64.6357,79.09,59,100,12.08
627,Ilhabela,BR,-23.7781,-45.3581,64.58,75,91,1.07
628,Bonavista,CA,48.6499,-53.1147,43.02,84,100,9.86
629,Springbok,ZA,-29.6643,17.8865,51.24,87,0,4.56
630,Zyryanka,RU,65.75,150.85,-8.16,94,100,10.83
631,Kyren,RU,51.6828,102.1408,24.08,77,32,0.98
632,Ugoofaaru,MV,5.6667,73.0,81.07,72,85,3.69
633,Yulara,AU,-25.2406,130.9889,81.12,16,0,13.27
634,Tarbes,FR,43.25,0.1667,48.31,92,75,6.91
635,Les Cayes,HT,18.2,-73.75,75.67,83,0,4.68
636,Hailar,CN,49.2,119.7,17.62,73,88,5.17
637,Oyama,JP,36.3,139.8,60.58,53,99,2.91
638,Taungdwingyi,MM,20.0167,95.55,74.21,67,6,1.41
639,Kawalu,ID,-7.3817,108.2082,77.49,88,100,1.79
640,Bezhetsk,RU,57.7851,36.6965,31.19,92,100,4.34
641,Huarmey,PE,-10.0681,-78.1522,63.1,84,13,8.03
642,Disa,IN,24.25,72.1667,72.05,41,10,2.62
643,Bulgan,MN,48.8125,103.5347,25.29,56,88,1.54
644,Vilyuysk,RU,63.7553,121.6247,10.26,92,100,8.32
645,Rovaniemi,FI,66.5,25.7167,42.21,93,100,14.97
646,Ivanovka,KG,42.8878,75.085,49.28,70,100,1.5
647,Yomou,GN,7.5603,-9.2653,69.62,71,77,1.07
648,Komsomolskiy,UZ,40.4272,71.7189,52.52,87,75,4.61
649,Sangar,RU,63.9242,127.4739,0.48,95,99,6.8
650,Mkokotoni,TZ,-5.8767,39.2547,76.06,82,100,8.01
651,Mildura,AU,-34.2,142.15,74.07,39,1,7.45
652,San Jeronimo,PE,-11.9472,-75.2829,48.96,84,100,7.61
653,Goure,NE,13.9835,10.2704,71.31,19,0,7.65
654,Samarai,PG,-10.6167,150.6667,84.47,71,28,10.58
655,Yellandu,IN,17.6,80.3333,67.98,94,0,2.3
656,Chadan,RU,51.2833,91.5833,16.23,91,100,3.04
657,Miraflores,MX,19.2167,-98.8083,61.97,59,93,2.68
658,Tuscaloosa,US,33.2098,-87.5692,73.18,66,0,6.91
659,Oranjemund,NA,-28.55,16.4333,60.69,90,32,1.9
660,Tarauaca,BR,-8.1614,-70.7656,71.38,55,32,0.89
661,Surami,GE,42.0243,43.5556,44.94,93,98,3.06
662,Carcassonne,FR,43.25,2.1667,52.23,84,0,16.11
663,Pontes E Lacerda,BR,-15.2261,-59.3353,66.34,51,6,4.56
664,Banda Aceh,ID,5.5577,95.3222,78.15,83,100,4.23
665,Careiro Da Varzea,BR,-3.2003,-59.8119,81.21,65,97,1.52
666,Pitimbu,BR,-7.4706,-34.8086,79.39,80,100,9.04
667,Fare,PF,-16.7,-151.0167,75.07,86,100,17.67
668,Botngard,NO,63.7653,9.8111,48.78,81,75,21.85
669,Avera,US,33.194,-82.5271,65.71,71,8,7.11
670,Burgeo,CA,47.6167,-57.6152,47.89,90,78,9.44
671,Guanare,VE,9.0418,-69.7421,72.93,84,100,2.53
672,La Ronge,CA,55.1001,-105.2842,25.05,80,75,9.22
673,Hurricane,US,37.1753,-113.2899,52.5,37,49,2.44
674,Deniliquin,AU,-35.5333,144.9667,69.91,45,5,6.82
675,Altay,CN,47.8667,88.1167,34.77,34,5,7.16
676,Feicheng,CN,35.2606,117.9675,51.3,40,0,0.45
677,Hvolsvollur,IS,63.7533,-20.2243,39.06,82,100,7.81
678,Bethanien,NA,-26.502,17.1583,56.75,57,0,0.31
679,Verkhnyaya Inta,RU,65.9811,60.3094,10.13,93,88,6.04
680,Hounde,BF,11.5,-3.5167,76.77,28,76,4.63
